{
  "_note": "緯度経度は実測値（国土地理院アドレスマッチング＋各施設公式サイト等で確認）。史実解説はWebSearchで各施設公式サイト・自治体観光サイト等を確認して記載（2026-07時点）。",
  "districts": [
    { "id": "chuo", "name": "長岡（中心部）", "center": { "lat": 37.450403, "lng": 138.852175 }, "unlockLevel": 1 },
    { "id": "settaya", "name": "摂田屋", "center": { "lat": 37.416123, "lng": 138.840705 }, "unlockLevel": 1 }
  ],
  "pois": [
    {
      "id": "aore",
      "districtId": "chuo",
      "name": "アオーレ長岡",
      "lat": 37.446645,
      "lng": 138.851112,
      "radius": 75,
      "rarity": "common",
      "coinsFirst": 120,
      "coinsRepeat": 10,
      "xp": 30,
      "category": "建築・公共",
      "treasure": {
        "title": "アオーレ長岡（シティホールプラザ）",
        "era": "2012年開館",
        "blurb": "2012年開館。建築家・隈研吾が設計した、市役所本庁舎とアリーナ、屋根付き広場「ナカドマ」が一体になった全国初の複合施設。愛称は長岡弁で「会いましょう」を意味する「会おうれ」に由来し、市民が日常的に集う交流拠点となっている。",
        "image": "card_aore.png"
      }
    },
    {
      "id": "yamamoto",
      "districtId": "chuo",
      "name": "山本五十六記念館",
      "lat": 37.452419,
      "lng": 138.851395,
      "radius": 75,
      "rarity": "uncommon",
      "coinsFirst": 150,
      "coinsRepeat": 10,
      "xp": 35,
      "category": "偉人・記念館",
      "treasure": {
        "title": "山本五十六記念館",
        "era": "生誕1884年（長岡出身）",
        "blurb": "長岡出身の海軍軍人・山本五十六の遺品や資料を通じてその人柄と生涯を伝える記念館。日本海海戦で被弾した際の軍服や搭乗機の一部などが並ぶ。近くの生家跡には、空襲で焼失した生家を復元した建物と胸像が建てられている。",
        "image": "card_yamamoto.png"
      }
    },
    {
      "id": "kawai",
      "districtId": "chuo",
      "name": "河井継之助記念館",
      "lat": 37.452145,
      "lng": 138.854019,
      "radius": 75,
      "rarity": "uncommon",
      "coinsFirst": 150,
      "coinsRepeat": 10,
      "xp": 35,
      "category": "偉人・記念館",
      "treasure": {
        "title": "河井継之助記念館",
        "era": "幕末（長岡藩家老）",
        "blurb": "2006年開館。幕末の長岡藩首席家老・河井継之助の生涯を伝える記念館で、ゆかりの品約30点を展示する。武装中立を掲げながらも北越戊辰戦争へと進んだ継之助の足跡を、愛用のガトリング砲や旅日記「塵壺」などから辿ることができる。",
        "image": "card_kawai.png"
      }
    },
    {
      "id": "kina_saffron",
      "districtId": "settaya",
      "name": "機那サフラン酒本舗（鏝絵の蔵）",
      "lat": 37.415909,
      "lng": 138.840512,
      "radius": 75,
      "rarity": "rare",
      "coinsFirst": 220,
      "coinsRepeat": 10,
      "xp": 50,
      "category": "醸造・文化財",
      "treasure": {
        "title": "機那サフラン酒本舗",
        "era": "明治期〜",
        "blurb": "創業者・吉澤仁太郎が薬用酒「機那サフラン酒」で財を成し、その富を注いで築いた土蔵群が残る史跡。左官職人・河上伊吉が手がけた極彩色の鏝絵で飾られた蔵は「日本一の鏝絵」と讃えられ、国の登録有形文化財に指定されている。",
        "image": "card_kina_saffron.png"
      }
    },
    {
      "id": "yoshinogawa",
      "districtId": "settaya",
      "name": "吉乃川 醸蔵",
      "lat": 37.416336,
      "lng": 138.840897,
      "radius": 75,
      "rarity": "common",
      "coinsFirst": 130,
      "coinsRepeat": 10,
      "xp": 30,
      "category": "醸造・文化財",
      "treasure": {
        "title": "吉乃川 醸蔵",
        "era": "創業1548年と伝わる",
        "blurb": "1548年（天文17年）創業と伝わる老舗酒蔵・吉乃川の酒ミュージアム。大正期に建てられた瓶詰め工場「常倉」（国登録有形文化財）を改装し、2019年にオープンした。三角形に組まれたトラス構造の天井が特徴で、酒造りの歴史を学べる展示やSAKEバーが楽しめる。",
        "image": "card_yoshinogawa.png"
      }
    }
  ]
}
