{
  "_note": "緯度経度は実測値（国土地理院アドレスマッチング＋各施設公式サイト等で確認）。史実解説はWebSearchで各施設公式サイト・自治体観光サイト等を確認して記載（2026-07時点）。",
  "districts": [
    { "id": "chuo", "name": "長岡（中心部）", "center": { "lat": 37.450403, "lng": 138.852175 }, "unlockLevel": 1 },
    { "id": "settaya", "name": "摂田屋", "center": { "lat": 37.416123, "lng": 138.840705 }, "unlockLevel": 1 },
    { "id": "yamakoshi", "name": "山古志", "center": { "lat": 37.324604, "lng": 138.882782 }, "unlockLevel": 1 },
    { "id": "teradomari", "name": "寺泊", "center": { "lat": 37.644131, "lng": 138.767471 }, "unlockLevel": 1 }
  ],
  "pois": [
    {
      "id": "aore",
      "districtId": "chuo",
      "name": "アオーレ長岡",
      "lat": 37.446645,
      "lng": 138.851112,
      "radius": 75,
      "rarity": "common",
      "coinsFirst": 120,
      "coinsRepeat": 10,
      "xp": 30,
      "category": "建築・公共",
      "treasure": {
        "title": "アオーレ長岡（シティホールプラザ）",
        "era": "2012年開館",
        "blurb": "2012年開館。建築家・隈研吾が設計した、市役所本庁舎とアリーナ、屋根付き広場「ナカドマ」が一体になった全国初の複合施設。愛称は長岡弁で「会いましょう」を意味する「会おうれ」に由来し、市民が日常的に集う交流拠点となっている。",
        "image": "card_aore.png"
      }
    },
    {
      "id": "yamamoto",
      "districtId": "chuo",
      "name": "山本五十六記念館",
      "lat": 37.452419,
      "lng": 138.851395,
      "radius": 75,
      "rarity": "uncommon",
      "coinsFirst": 150,
      "coinsRepeat": 10,
      "xp": 35,
      "category": "偉人・記念館",
      "treasure": {
        "title": "山本五十六記念館",
        "era": "生誕1884年（長岡出身）",
        "blurb": "長岡出身の海軍軍人・山本五十六の遺品や資料を通じてその人柄と生涯を伝える記念館。日本海海戦で被弾した際の軍服や搭乗機の一部などが並ぶ。近くの生家跡には、空襲で焼失した生家を復元した建物と胸像が建てられている。",
        "image": "card_yamamoto.png"
      }
    },
    {
      "id": "kawai",
      "districtId": "chuo",
      "name": "河井継之助記念館",
      "lat": 37.452145,
      "lng": 138.854019,
      "radius": 75,
      "rarity": "uncommon",
      "coinsFirst": 150,
      "coinsRepeat": 10,
      "xp": 35,
      "category": "偉人・記念館",
      "treasure": {
        "title": "河井継之助記念館",
        "era": "幕末（長岡藩家老）",
        "blurb": "2006年開館。幕末の長岡藩首席家老・河井継之助の生涯を伝える記念館で、ゆかりの品約30点を展示する。武装中立を掲げながらも北越戊辰戦争へと進んだ継之助の足跡を、愛用のガトリング砲や旅日記「塵壺」などから辿ることができる。",
        "image": "card_kawai.png"
      }
    },
    {
      "id": "sensai",
      "districtId": "chuo",
      "name": "長岡戦災資料館",
      "lat": 37.450802,
      "lng": 138.849777,
      "radius": 75,
      "rarity": "uncommon",
      "coinsFirst": 150,
      "coinsRepeat": 10,
      "xp": 35,
      "category": "歴史・資料館",
      "treasure": {
        "title": "長岡戦災資料館",
        "era": "2003年開館",
        "blurb": "1945年8月1日深夜の長岡空襲による被害の実相と復興の歩みを伝える資料館。2003年に開館し、2026年5月には長岡市坂之上町の旧・互尊文庫の建物へ移転した。戦災の記憶を語り継ぐ市民活動の拠点として、資料や証言を通じて平和の大切さを伝えている。",
        "image": "card_sensai.png"
      }
    },
    {
      "id": "nyozekura",
      "districtId": "chuo",
      "name": "如是蔵博物館",
      "lat": 37.448601,
      "lng": 138.854935,
      "radius": 75,
      "rarity": "common",
      "coinsFirst": 120,
      "coinsRepeat": 10,
      "xp": 28,
      "category": "歴史・資料館",
      "treasure": {
        "title": "如是蔵博物館",
        "era": "実業家・野本恭八郎ゆかり",
        "blurb": "長岡の市立図書館の前身「互尊文庫」を寄贈した実業家・野本恭八郎ゆかりの資料を中心に、河井継之助や山本五十六など長岡ゆかりの先人たちの資料を紹介する博物館。歴史的価値のある収蔵資料を大切に保管・公開する、まちなかの小さな学びの蔵。",
        "image": "card_nyozekura.png"
      }
    },
    {
      "id": "honmaru",
      "districtId": "chuo",
      "name": "長岡城本丸跡",
      "lat": 37.4462,
      "lng": 138.8515,
      "radius": 75,
      "rarity": "rare",
      "coinsFirst": 200,
      "coinsRepeat": 10,
      "xp": 45,
      "category": "城跡・史跡",
      "treasure": {
        "title": "長岡城本丸跡",
        "era": "江戸〜明治（長岡藩の居城）",
        "blurb": "江戸時代、牧野家が治めた長岡藩の居城・長岡城の本丸があった場所。天守は持たず、高さ約23mの三階櫓（御三階）が代用された平城だったが、慶応4年（1868年）の北越戊辰戦争で焼失し廃城となった。明治31年の鉄道開業でJR長岡駅が建設され遺構は完全に失われたが、現在は駅前に城址を伝える碑が立つ。",
        "image": "card_honmaru.png"
      }
    },
    {
      "id": "yukyuzan",
      "districtId": "chuo",
      "name": "悠久山公園（郷土史料館）",
      "lat": 37.428562,
      "lng": 138.880157,
      "radius": 75,
      "rarity": "uncommon",
      "coinsFirst": 160,
      "coinsRepeat": 10,
      "xp": 38,
      "category": "公園・史跡",
      "treasure": {
        "title": "長岡市郷土史料館（悠久山公園）",
        "era": "市制60周年記念",
        "blurb": "約2500本の桜が彩り「日本さくら名所100選」にも選ばれた悠久山公園。市制60周年記念事業として高台に建てられた天守閣風の建物が長岡市郷土史料館で、河井継之助や山本五十六ら郷土出身の先人38人の業績を紹介するほか、豪雪地帯の暮らしを伝える民俗資料も展示している。",
        "image": "card_yukyuzan.png"
      }
    },
    {
      "id": "kina_saffron",
      "districtId": "settaya",
      "name": "機那サフラン酒本舗（鏝絵の蔵）",
      "lat": 37.415909,
      "lng": 138.840512,
      "radius": 75,
      "rarity": "rare",
      "coinsFirst": 220,
      "coinsRepeat": 10,
      "xp": 50,
      "category": "醸造・文化財",
      "treasure": {
        "title": "機那サフラン酒本舗",
        "era": "明治期〜",
        "blurb": "創業者・吉澤仁太郎が薬用酒「機那サフラン酒」で財を成し、その富を注いで築いた土蔵群が残る史跡。左官職人・河上伊吉が手がけた極彩色の鏝絵で飾られた蔵は「日本一の鏝絵」と讃えられ、国の登録有形文化財に指定されている。",
        "image": "card_kina_saffron.png"
      }
    },
    {
      "id": "yoshinogawa",
      "districtId": "settaya",
      "name": "吉乃川 醸蔵",
      "lat": 37.416336,
      "lng": 138.840897,
      "radius": 75,
      "rarity": "common",
      "coinsFirst": 130,
      "coinsRepeat": 10,
      "xp": 30,
      "category": "醸造・文化財",
      "treasure": {
        "title": "吉乃川 醸蔵",
        "era": "創業1548年と伝わる",
        "blurb": "1548年（天文17年）創業と伝わる老舗酒蔵・吉乃川の酒ミュージアム。大正期に建てられた瓶詰め工場「常倉」（国登録有形文化財）を改装し、2019年にオープンした。三角形に組まれたトラス構造の天井が特徴で、酒造りの歴史を学べる展示やSAKEバーが楽しめる。",
        "image": "card_yoshinogawa.png"
      }
    },
    {
      "id": "koshimurasaki",
      "districtId": "settaya",
      "name": "越のむらさき（醤油蔵）",
      "lat": 37.417236,
      "lng": 138.842575,
      "radius": 75,
      "rarity": "common",
      "coinsFirst": 130,
      "coinsRepeat": 10,
      "xp": 30,
      "category": "醸造・文化財",
      "treasure": {
        "title": "越のむらさき",
        "era": "創業1831年",
        "blurb": "天保2年（1831年）創業、190年以上の歴史を持つ摂田屋の老舗醤油蔵。看板商品「越のむらさき」は厳選した鰹節から取っただしを合わせた再仕込み醤油で、新潟の食卓に欠かせない味として親しまれている。趣のある社屋や煉瓦煙突は長岡市都市景観賞を受賞した。",
        "image": "card_koshimurasaki.png"
      }
    },
    {
      "id": "hasegawa",
      "districtId": "settaya",
      "name": "長谷川酒造（酒蔵）",
      "lat": 37.412571,
      "lng": 138.845093,
      "radius": 75,
      "rarity": "common",
      "coinsFirst": 140,
      "coinsRepeat": 10,
      "xp": 32,
      "category": "醸造・文化財",
      "treasure": {
        "title": "長谷川酒造",
        "era": "創業1842年",
        "blurb": "天保13年（1842年）創業、屋号「信州屋」の摂田屋の酒蔵。杜氏・蔵人がほぼ全工程を手作業で醸す少量生産にこだわり、代表銘柄「越後雪紅梅」は作曲家・遠藤実にちなんで名付けられた。明治19年築の母屋と大正8年築の醸造蔵は国の登録有形文化財に指定されている。",
        "image": "card_hasegawa.png"
      }
    },
    {
      "id": "yamakoshi",
      "districtId": "yamakoshi",
      "name": "山古志 錦鯉の里",
      "lat": 37.324604,
      "lng": 138.882782,
      "radius": 80,
      "rarity": "rare",
      "coinsFirst": 200,
      "coinsRepeat": 10,
      "xp": 45,
      "category": "伝統産業・自然",
      "treasure": {
        "title": "山古志 錦鯉の里",
        "era": "錦鯉発祥の地／日本農業遺産第1号（2017年）",
        "blurb": "約200年前、食用に飼っていた真鯉の突然変異から色鯉が生まれたのが起源とされる、錦鯉発祥の地・山古志。雪解け水を利用した棚田・棚池で鯉を育てる「雪の恵みを活かした稲作・養鯉システム」は2017年に日本農業遺産第1号に認定された。中越地震からの復興拠点「やまこし復興交流館おらたる」周辺には、錦鯉を紹介する施設や美しい棚田・棚池の風景が広がる。",
        "image": "card_yamakoshi.png"
      }
    },
    {
      "id": "teradomari",
      "districtId": "teradomari",
      "name": "寺泊 魚の市場通り",
      "lat": 37.644131,
      "lng": 138.767471,
      "radius": 80,
      "rarity": "rare",
      "coinsFirst": 200,
      "coinsRepeat": 10,
      "xp": 45,
      "category": "港町・食文化",
      "treasure": {
        "title": "寺泊 魚の市場通り",
        "era": "通称「魚のアメ横」",
        "blurb": "長岡市寺泊、日本海沿いの国道402号沿いに鮮魚店・土産物店が軒を連ねる「魚の市場通り」。その賑わいから「魚のアメ横」の愛称で親しまれ、寺泊港に水揚げされた新鮮な魚介類や干物、焼き魚などを求めて多くの観光客が訪れる。営業時間は8時30分から17時までで、年中無休で営業している。",
        "image": "card_teradomari.png"
      }
    }
  ]
}
