{
  "_note": "緯度経度は実測値（国土地理院アドレスマッチング＋各施設公式サイト等で確認）。史実解説はWebSearchで各施設公式サイト・自治体観光サイト等を確認して記載（2026-07時点）。",
  "districts": [
    {
      "id": "chuo",
      "name": "長岡（中心部）",
      "center": {
        "lat": 37.450403,
        "lng": 138.852175
      },
      "unlockLevel": 1
    },
    {
      "id": "settaya",
      "name": "摂田屋",
      "center": {
        "lat": 37.416123,
        "lng": 138.840705
      },
      "unlockLevel": 1
    },
    {
      "id": "yamakoshi",
      "name": "山古志",
      "center": {
        "lat": 37.324604,
        "lng": 138.882782
      },
      "unlockLevel": 1
    },
    {
      "id": "teradomari",
      "name": "寺泊",
      "center": {
        "lat": 37.644131,
        "lng": 138.767471
      },
      "unlockLevel": 1
    },
    {
      "id": "tochio",
      "name": "栃尾",
      "center": {
        "lat": 37.472698,
        "lng": 138.994683
      },
      "unlockLevel": 1
    },
    {
      "id": "yoita",
      "name": "与板",
      "center": {
        "lat": 37.537002,
        "lng": 138.807238
      },
      "unlockLevel": 1
    },
    {
      "id": "koshiji",
      "name": "越路",
      "center": {
        "lat": 37.385444,
        "lng": 138.759087
      },
      "unlockLevel": 1
    },
    {
      "id": "yomogihira",
      "name": "蓬平",
      "center": {
        "lat": 37.369111,
        "lng": 138.896419
      },
      "unlockLevel": 1
    }
  ],
  "pois": [
    {
      "id": "aore",
      "districtId": "chuo",
      "name": "アオーレ長岡",
      "lat": 37.446645,
      "lng": 138.851112,
      "radius": 75,
      "rarity": "common",
      "coinsFirst": 120,
      "coinsRepeat": 10,
      "xp": 30,
      "category": "建築・公共",
      "treasure": {
        "title": "アオーレ長岡（シティホールプラザ）",
        "era": "2012年開館",
        "blurb": "2012年開館。建築家・隈研吾が設計した、市役所本庁舎とアリーナ、屋根付き広場「ナカドマ」が一体になった全国初の複合施設。愛称は長岡弁で「会いましょう」を意味する「会おうれ」に由来し、市民が日常的に集う交流拠点となっている。",
        "image": "card_aore.png"
      }
    },
    {
      "id": "yamamoto",
      "districtId": "chuo",
      "name": "山本五十六記念館",
      "lat": 37.452419,
      "lng": 138.851395,
      "radius": 75,
      "rarity": "uncommon",
      "coinsFirst": 150,
      "coinsRepeat": 10,
      "xp": 35,
      "category": "偉人・記念館",
      "treasure": {
        "title": "山本五十六記念館",
        "era": "生誕1884年（長岡出身）",
        "blurb": "長岡出身の海軍軍人・山本五十六の遺品や資料を通じてその人柄と生涯を伝える記念館。日本海海戦で被弾した際の軍服や搭乗機の一部などが並ぶ。近くの生家跡には、空襲で焼失した生家を復元した建物と胸像が建てられている。",
        "image": "card_yamamoto.png"
      }
    },
    {
      "id": "kawai",
      "districtId": "chuo",
      "name": "河井継之助記念館",
      "lat": 37.452145,
      "lng": 138.854019,
      "radius": 75,
      "rarity": "uncommon",
      "coinsFirst": 150,
      "coinsRepeat": 10,
      "xp": 35,
      "category": "偉人・記念館",
      "treasure": {
        "title": "河井継之助記念館",
        "era": "幕末（長岡藩家老）",
        "blurb": "2006年開館。幕末の長岡藩首席家老・河井継之助の生涯を伝える記念館で、ゆかりの品約30点を展示する。武装中立を掲げながらも北越戊辰戦争へと進んだ継之助の足跡を、愛用のガトリング砲や旅日記「塵壺」などから辿ることができる。",
        "image": "card_kawai.png"
      }
    },
    {
      "id": "sensai",
      "districtId": "chuo",
      "name": "長岡戦災資料館",
      "lat": 37.450802,
      "lng": 138.849777,
      "radius": 75,
      "rarity": "uncommon",
      "coinsFirst": 150,
      "coinsRepeat": 10,
      "xp": 35,
      "category": "歴史・資料館",
      "treasure": {
        "title": "長岡戦災資料館",
        "era": "2003年開館",
        "blurb": "1945年8月1日深夜の長岡空襲による被害の実相と復興の歩みを伝える資料館。2003年に開館し、2026年5月には長岡市坂之上町の旧・互尊文庫の建物へ移転した。戦災の記憶を語り継ぐ市民活動の拠点として、資料や証言を通じて平和の大切さを伝えている。",
        "image": "card_sensai.png"
      }
    },
    {
      "id": "nyozekura",
      "districtId": "chuo",
      "name": "如是蔵博物館",
      "lat": 37.448601,
      "lng": 138.854935,
      "radius": 75,
      "rarity": "common",
      "coinsFirst": 120,
      "coinsRepeat": 10,
      "xp": 28,
      "category": "歴史・資料館",
      "treasure": {
        "title": "如是蔵博物館",
        "era": "実業家・野本恭八郎ゆかり",
        "blurb": "長岡の市立図書館の前身「互尊文庫」を寄贈した実業家・野本恭八郎ゆかりの資料を中心に、河井継之助や山本五十六など長岡ゆかりの先人たちの資料を紹介する博物館。歴史的価値のある収蔵資料を大切に保管・公開する、まちなかの小さな学びの蔵。",
        "image": "card_nyozekura.png"
      }
    },
    {
      "id": "honmaru",
      "districtId": "chuo",
      "name": "長岡城本丸跡",
      "lat": 37.4462,
      "lng": 138.8515,
      "radius": 75,
      "rarity": "rare",
      "coinsFirst": 200,
      "coinsRepeat": 10,
      "xp": 45,
      "category": "城跡・史跡",
      "treasure": {
        "title": "長岡城本丸跡",
        "era": "江戸〜明治（長岡藩の居城）",
        "blurb": "江戸時代、牧野家が治めた長岡藩の居城・長岡城の本丸があった場所。天守は持たず、高さ約23mの三階櫓（御三階）が代用された平城だったが、慶応4年（1868年）の北越戊辰戦争で焼失し廃城となった。明治31年の鉄道開業でJR長岡駅が建設され遺構は完全に失われたが、現在は駅前に城址を伝える碑が立つ。",
        "image": "card_honmaru.png"
      }
    },
    {
      "id": "yukyuzan",
      "districtId": "chuo",
      "name": "悠久山公園（郷土史料館）",
      "lat": 37.428562,
      "lng": 138.880157,
      "radius": 75,
      "rarity": "uncommon",
      "coinsFirst": 160,
      "coinsRepeat": 10,
      "xp": 38,
      "category": "公園・史跡",
      "treasure": {
        "title": "長岡市郷土史料館（悠久山公園）",
        "era": "市制60周年記念",
        "blurb": "約2500本の桜が彩り「日本さくら名所100選」にも選ばれた悠久山公園。市制60周年記念事業として高台に建てられた天守閣風の建物が長岡市郷土史料館で、河井継之助や山本五十六ら郷土出身の先人38人の業績を紹介するほか、豪雪地帯の暮らしを伝える民俗資料も展示している。",
        "image": "card_yukyuzan.png"
      }
    },
    {
      "id": "sakanoue",
      "districtId": "chuo",
      "name": "阪之上小学校",
      "lat": 37.447475,
      "lng": 138.856995,
      "radius": 75,
      "rarity": "uncommon",
      "coinsFirst": 150,
      "coinsRepeat": 10,
      "xp": 35,
      "category": "偉人・史跡",
      "treasure": {
        "title": "阪之上小学校（米百俵ゆかりの地）",
        "era": "創立1874年／米百俵は明治3年(1870)",
        "blurb": "戊辰戦争で焦土となった長岡藩に支藩・三根山藩から見舞いとして送られた百俵の米。大参事・小林虎三郎は困窮する藩士へ分け与えず売却し、その代金で人材育成のための学校「国漢学校」を開設することを主張した。「米百俵の精神」として知られるこの逸話ゆかりの地に建つ阪之上小学校には、伝統館が設けられている。",
        "image": "card_sakanoue.png"
      }
    },
    {
      "id": "kina_saffron",
      "districtId": "settaya",
      "name": "機那サフラン酒本舗（鏝絵の蔵）",
      "lat": 37.415909,
      "lng": 138.840512,
      "radius": 75,
      "rarity": "rare",
      "coinsFirst": 220,
      "coinsRepeat": 10,
      "xp": 50,
      "category": "醸造・文化財",
      "treasure": {
        "title": "機那サフラン酒本舗",
        "era": "明治期〜",
        "blurb": "創業者・吉澤仁太郎が薬用酒「機那サフラン酒」で財を成し、その富を注いで築いた土蔵群が残る史跡。左官職人・河上伊吉が手がけた極彩色の鏝絵で飾られた蔵は「日本一の鏝絵」と讃えられ、国の登録有形文化財に指定されている。",
        "image": "card_kina_saffron.png"
      }
    },
    {
      "id": "yoshinogawa",
      "districtId": "settaya",
      "name": "吉乃川 醸蔵",
      "lat": 37.416336,
      "lng": 138.840897,
      "radius": 75,
      "rarity": "common",
      "coinsFirst": 130,
      "coinsRepeat": 10,
      "xp": 30,
      "category": "醸造・文化財",
      "treasure": {
        "title": "吉乃川 醸蔵",
        "era": "創業1548年と伝わる",
        "blurb": "1548年（天文17年）創業と伝わる老舗酒蔵・吉乃川の酒ミュージアム。大正期に建てられた瓶詰め工場「常倉」（国登録有形文化財）を改装し、2019年にオープンした。三角形に組まれたトラス構造の天井が特徴で、酒造りの歴史を学べる展示やSAKEバーが楽しめる。",
        "image": "card_yoshinogawa.png"
      }
    },
    {
      "id": "koshimurasaki",
      "districtId": "settaya",
      "name": "越のむらさき（醤油蔵）",
      "lat": 37.417236,
      "lng": 138.842575,
      "radius": 75,
      "rarity": "common",
      "coinsFirst": 130,
      "coinsRepeat": 10,
      "xp": 30,
      "category": "醸造・文化財",
      "treasure": {
        "title": "越のむらさき",
        "era": "創業1831年",
        "blurb": "天保2年（1831年）創業、190年以上の歴史を持つ摂田屋の老舗醤油蔵。看板商品「越のむらさき」は厳選した鰹節から取っただしを合わせた再仕込み醤油で、新潟の食卓に欠かせない味として親しまれている。趣のある社屋や煉瓦煙突は長岡市都市景観賞を受賞した。",
        "image": "card_koshimurasaki.png"
      }
    },
    {
      "id": "hasegawa",
      "districtId": "settaya",
      "name": "長谷川酒造（酒蔵）",
      "lat": 37.412571,
      "lng": 138.845093,
      "radius": 75,
      "rarity": "common",
      "coinsFirst": 140,
      "coinsRepeat": 10,
      "xp": 32,
      "category": "醸造・文化財",
      "treasure": {
        "title": "長谷川酒造",
        "era": "創業1842年",
        "blurb": "天保13年（1842年）創業、屋号「信州屋」の摂田屋の酒蔵。杜氏・蔵人がほぼ全工程を手作業で醸す少量生産にこだわり、代表銘柄「越後雪紅梅」は作曲家・遠藤実にちなんで名付けられた。明治19年築の母屋と大正8年築の醸造蔵は国の登録有形文化財に指定されている。",
        "image": "card_hasegawa.png"
      }
    },
    {
      "id": "yamakoshi",
      "districtId": "yamakoshi",
      "name": "山古志 錦鯉の里",
      "lat": 37.324604,
      "lng": 138.882782,
      "radius": 80,
      "rarity": "rare",
      "coinsFirst": 200,
      "coinsRepeat": 10,
      "xp": 45,
      "category": "伝統産業・自然",
      "treasure": {
        "title": "山古志 錦鯉の里",
        "era": "錦鯉発祥の地／日本農業遺産第1号（2017年）",
        "blurb": "約200年前、食用に飼っていた真鯉の突然変異から色鯉が生まれたのが起源とされる、錦鯉発祥の地・山古志。雪解け水を利用した棚田・棚池で鯉を育てる「雪の恵みを活かした稲作・養鯉システム」は2017年に日本農業遺産第1号に認定された。中越地震からの復興拠点「やまこし復興交流館おらたる」周辺には、錦鯉を紹介する施設や美しい棚田・棚池の風景が広がる。",
        "image": "card_yamakoshi.png"
      }
    },
    {
      "id": "teradomari",
      "districtId": "teradomari",
      "name": "寺泊 魚の市場通り",
      "lat": 37.644131,
      "lng": 138.767471,
      "radius": 80,
      "rarity": "rare",
      "coinsFirst": 200,
      "coinsRepeat": 10,
      "xp": 45,
      "category": "港町・食文化",
      "treasure": {
        "title": "寺泊 魚の市場通り",
        "era": "通称「魚のアメ横」",
        "blurb": "長岡市寺泊、日本海沿いの国道402号沿いに鮮魚店・土産物店が軒を連ねる「魚の市場通り」。その賑わいから「魚のアメ横」の愛称で親しまれ、寺泊港に水揚げされた新鮮な魚介類や干物、焼き魚などを求めて多くの観光客が訪れる。営業時間は8時30分から17時までで、年中無休で営業している。",
        "image": "card_teradomari.png"
      }
    },
    {
      "id": "tochio",
      "districtId": "tochio",
      "name": "栃尾 秋葉神社",
      "lat": 37.472698,
      "lng": 138.994683,
      "radius": 80,
      "rarity": "rare",
      "coinsFirst": 200,
      "coinsRepeat": 10,
      "xp": 45,
      "category": "神社・城下町",
      "treasure": {
        "title": "栃尾 秋葉神社",
        "era": "天文20年(1551)上杉謙信ゆかり",
        "blurb": "上杉謙信（当時は長尾景虎）が旗揚げしたと伝わる栃尾城跡の対岸、秋葉公園内に鎮座する神社。天文20年（1551）、常安寺の守護神として楡原の蔵王堂から遷されたのが始まりと伝わり、火伏せの神「秋葉三尺坊大権現」として篤く信仰されている。栃尾は名物「栃尾あぶらげ」でも知られ、謙信ゆかりの城下町らしい趣を今に伝える。",
        "image": "card_tochio.png"
      }
    },
    {
      "id": "yoita",
      "districtId": "yoita",
      "name": "与板 都野神社",
      "lat": 37.537002,
      "lng": 138.807238,
      "radius": 80,
      "rarity": "rare",
      "coinsFirst": 200,
      "coinsRepeat": 10,
      "xp": 45,
      "category": "神社・城下町",
      "treasure": {
        "title": "与板 都野神社",
        "era": "延長5年(927)延喜式内社／直江兼続ゆかり",
        "blurb": "延長5年（927）の『延喜式神名帳』にも記載される、信濃川舟運の要衝・与板の総鎮守。与板城主・直江兼続が九州の宇佐八幡宮から祭神を勧請して以来「八幡宮」とも呼ばれるようになった。直江兼続ゆかりの与板は、兼続が城を構えた城下町として今も歴史の面影を残している。",
        "image": "card_yoita.png"
      }
    },
    {
      "id": "hotokusan",
      "districtId": "koshiji",
      "name": "宝徳山稲荷大社",
      "lat": 37.385444,
      "lng": 138.759087,
      "radius": 80,
      "rarity": "rare",
      "coinsFirst": 200,
      "coinsRepeat": 10,
      "xp": 45,
      "category": "神社・信仰",
      "treasure": {
        "title": "宝徳山稲荷大社",
        "era": "文政年間(1820頃)現在地に遷営",
        "blurb": "祭神に天照白菊宝徳稲荷大神など三柱をまつる神社で、創祀は縄文の昔にまで遡ると伝わる。文政年間（1820年頃）、中之岳の銀が峰からこの地・奥之院長者原へ遷営されたとされ、以来全国から年間30万人余りの参拝者を集める信仰の地となっている。長岡市南西、旧越路町飯塚の丘陵地に鎮座する。",
        "image": "card_hotokusan.png"
      }
    },
    {
      "id": "toushijou",
      "districtId": "yamakoshi",
      "name": "山古志闘牛場",
      "lat": 37.3274,
      "lng": 138.9099,
      "radius": 80,
      "rarity": "uncommon",
      "coinsFirst": 160,
      "coinsRepeat": 10,
      "xp": 38,
      "category": "伝統文化・祭",
      "treasure": {
        "title": "山古志闘牛場（牛の角突き）",
        "era": "国重要無形民俗文化財",
        "blurb": "「牛の角突き」で知られる山古志の闘牛場。二頭の巨牛が角を突き合わせて力比べをする勇壮な行事で、決着をつけず引き分けにするのが山古志流の作法とされる。約1000年の歴史を持つと伝わり、国の重要無形民俗文化財に指定。例年5月から11月にかけて取組が行われ、勢子（せこ）と呼ばれる男たちが牛を操る。",
        "image": "card_toushijou.png"
      }
    },
    {
      "id": "nakayama",
      "districtId": "yamakoshi",
      "name": "中山隧道",
      "lat": 37.3028,
      "lng": 138.9291,
      "radius": 80,
      "rarity": "rare",
      "coinsFirst": 200,
      "coinsRepeat": 10,
      "xp": 45,
      "category": "土木遺産・史跡",
      "treasure": {
        "title": "中山隧道",
        "era": "1933〜1949年 手掘り",
        "blurb": "山古志（旧東竹沢）と小松倉を結ぶ、手掘りとしては日本一長いトンネル。豪雪で孤立しがちだった村人たちが、医療や生活のために昭和8年（1933）から16年をかけてツルハシで掘り抜いた延長877mの隧道で、国の登録有形文化財・近代化産業遺産に選定されている。すぐ脇を現道の新中山トンネルが通る。",
        "image": "card_nakayama.png"
      }
    },
    {
      "id": "kogomo",
      "districtId": "yamakoshi",
      "name": "木籠メモリアルパーク",
      "lat": 37.3098,
      "lng": 138.9096,
      "radius": 80,
      "rarity": "uncommon",
      "coinsFirst": 160,
      "coinsRepeat": 10,
      "xp": 38,
      "category": "震災遺構・史跡",
      "treasure": {
        "title": "木籠メモリアルパーク",
        "era": "2004年 中越地震",
        "blurb": "2004年（平成16年）の新潟県中越地震で、芋川がせき止められてできた天然ダムに水没した木籠（こごも）集落。屋根まで水に浸かった家屋がそのまま保存され、災害の記憶と教訓を伝えるメモリアルパークとして整備された。高台に移転した新しい木籠集落の住民が語り部となり、震災の体験を今に伝えている。",
        "image": "card_kogomo.png"
      }
    },
    {
      "id": "tanesuhara",
      "districtId": "yamakoshi",
      "name": "種苧原",
      "lat": 37.3517,
      "lng": 138.9316,
      "radius": 80,
      "rarity": "uncommon",
      "coinsFirst": 150,
      "coinsRepeat": 10,
      "xp": 35,
      "category": "棚田・里山",
      "treasure": {
        "title": "種苧原（たねすはら）",
        "era": "山古志の里山集落",
        "blurb": "山古志でも有数の広さを持つ集落・種苧原。雪解け水を活かした棚田と棚池が山あいに幾重にも連なり、稲作と錦鯉の養殖が営まれてきた里山の原風景が広がる。近くにはアルパカ牧場もあり、中越地震からの復興のシンボルとして親しまれている。十二山神社に奉納される大わらじでも知られる。",
        "image": "card_tanesuhara.png"
      }
    },
    {
      "id": "koryu",
      "districtId": "yomogihira",
      "name": "高龍神社",
      "lat": 37.369111,
      "lng": 138.896419,
      "radius": 80,
      "rarity": "rare",
      "coinsFirst": 200,
      "coinsRepeat": 10,
      "xp": 45,
      "category": "神社・信仰",
      "treasure": {
        "title": "高龍神社",
        "era": "南北朝時代 創建と伝わる",
        "blurb": "蓬平（よもぎひら）温泉の奥、山の中腹に鎮座する商売繁盛の神様。南北朝時代、この地で病に倒れた武将を助けた白蛇の化身をまつったのが始まりと伝わり、全国から多くの経営者や商売人が参拝に訪れる。長い石段のほかエレベーターでも社殿へ上がれ、生玉子をお供えする独特の信仰でも知られる。",
        "image": "card_koryu.png"
      }
    },
    {
      "id": "hakusan",
      "districtId": "teradomari",
      "name": "白山媛神社",
      "lat": 37.64204,
      "lng": 138.768284,
      "radius": 60,
      "rarity": "rare",
      "coinsFirst": 200,
      "coinsRepeat": 10,
      "xp": 45,
      "category": "神社・港町",
      "treasure": {
        "title": "白山媛神社",
        "era": "寺泊の総鎮守",
        "blurb": "日本海に臨む港町・寺泊の総鎮守。御影石の鳥居から社殿へ125段の石段が続き、高台からは町と海を一望できる。北前船で栄えた時代に廻船問屋や船主が奉献した「船絵馬」52点を所蔵し、国の重要文化財に指定。海の安全と繁栄を祈った人々の信仰を今に伝える。",
        "image": "card_hakusan.png"
      }
    },
    {
      "id": "shomyoji",
      "districtId": "teradomari",
      "name": "照明寺・密蔵院",
      "lat": 37.64082,
      "lng": 138.767259,
      "radius": 60,
      "rarity": "uncommon",
      "coinsFirst": 160,
      "coinsRepeat": 10,
      "xp": 38,
      "category": "寺院・良寛ゆかり",
      "treasure": {
        "title": "照明寺・密蔵院（良寛ゆかり）",
        "era": "永承2年(1047)開創と伝わる",
        "blurb": "平安後期の永承2年（1047）、高野山竜光院の栄秀和尚が開いたと伝わる真言宗の古刹。境内の「密蔵院」は、越後の名僧・良寛が45歳の頃をはじめ生涯に3度仮住まいした庵として知られ、良寛を慕う人々が訪れる巡礼の地となっている。趣ある山門と杉木立の参道が迎える。",
        "image": "card_shomyoji.png"
      }
    },
    {
      "id": "jukanen",
      "districtId": "teradomari",
      "name": "聚感園",
      "lat": 37.6415,
      "lng": 138.7678,
      "radius": 60,
      "rarity": "uncommon",
      "coinsFirst": 160,
      "coinsRepeat": 10,
      "xp": 38,
      "category": "庭園・史跡",
      "treasure": {
        "title": "聚感園",
        "era": "豪族・五十嵐家の旧宅",
        "blurb": "寺泊の豪族・五十嵐家の旧宅を保存した庭園で、園名は「昔をしのぶさまざまな感情が聚（あつ）まる庭」の意。日本海を望む景勝地で、園内には弁慶が掘ったとも伝わる古井戸「硯水（すずりみず）」が残る。佐渡へ流される日蓮上人が渡航の舟を待つ間、この地で説法したとも語り継がれている。",
        "image": "card_jukanen.png"
      }
    },
    {
      "id": "suizoku",
      "districtId": "teradomari",
      "name": "寺泊水族博物館",
      "lat": 37.6296,
      "lng": 138.7605,
      "radius": 80,
      "rarity": "uncommon",
      "coinsFirst": 160,
      "coinsRepeat": 10,
      "xp": 38,
      "category": "水族館・名所",
      "treasure": {
        "title": "寺泊水族博物館",
        "era": "1983年開館",
        "blurb": "三方を日本海に囲まれた花立の岬に建つ、円柱形が印象的な水族館。日本海の魚を中心におよそ400種の生きものを展示し、海に浮かぶようなロケーションと屋上からの眺望が人気。ラッコやペンギンのお食事タイムなども楽しめる、寺泊のシンボル的施設。",
        "image": "card_suizoku.png"
      }
    },
    {
      "id": "kaisui",
      "districtId": "teradomari",
      "name": "寺泊中央海水浴場",
      "lat": 37.6375,
      "lng": 138.7625,
      "radius": 80,
      "rarity": "common",
      "coinsFirst": 130,
      "coinsRepeat": 10,
      "xp": 30,
      "category": "海岸・景勝",
      "treasure": {
        "title": "寺泊中央海水浴場",
        "era": "寺泊海岸のシンボルビーチ",
        "blurb": "南北16kmにおよぶ寺泊海岸の中心にある、広い砂浜のビーチ。浜辺にヤシの木が並びリゾートのような雰囲気で、夏は多くの海水浴客でにぎわう。遠浅で家族連れにも人気。日本海に沈む夕日の美しさでも知られる、夕景の名所。",
        "image": "card_kaisui.png"
      }
    },
    {
      "id": "kanetsugu_museum",
      "districtId": "yoita",
      "name": "兼続お船ミュージアム",
      "lat": 37.5378,
      "lng": 138.8052,
      "radius": 60,
      "rarity": "rare",
      "coinsFirst": 200,
      "coinsRepeat": 10,
      "xp": 45,
      "category": "資料館・歴史",
      "treasure": {
        "title": "兼続お船ミュージアム（与板歴史民俗資料館）",
        "era": "直江兼続・お船ゆかり",
        "blurb": "直江兼続とその妻お船をテーマにした資料館。兜の前立に「愛」を掲げた兼続所用の甲冑（複製）を360度で展示し、甲冑を実際に着る体験もできる。与板出身で日本人初のビール醸造人となった中川清兵衛を紹介するコーナーもある。",
        "image": "treasure.png"
      }
    },
    {
      "id": "yoita_castle",
      "districtId": "yoita",
      "name": "与板城跡（城山）",
      "lat": 37.5396,
      "lng": 138.8031,
      "radius": 60,
      "rarity": "uncommon",
      "coinsFirst": 160,
      "coinsRepeat": 10,
      "xp": 38,
      "category": "城跡・史跡",
      "treasure": {
        "title": "与板城跡（城山）",
        "era": "直江兼続の居城",
        "blurb": "上杉景勝の執政として活躍した直江兼続の居城。城山の頂に実城・二ノ郭・三ノ郭が一列に配され、実城の東には妻お船が水を汲み茶をたてたと伝わる「お船清水」が残る。愛と義に生きた兼続とお船をしのぶ史跡。",
        "image": "treasure.png"
      }
    },
    {
      "id": "moto_yoita",
      "districtId": "yoita",
      "name": "本与板城跡",
      "lat": 37.5458,
      "lng": 138.8112,
      "radius": 60,
      "rarity": "uncommon",
      "coinsFirst": 160,
      "coinsRepeat": 10,
      "xp": 38,
      "category": "城跡・史跡",
      "treasure": {
        "title": "本与板城跡",
        "era": "直江氏の旧居城",
        "blurb": "直江氏が与板城へ移る前の居城と伝わる山城跡。土塁や曲輪の跡が今も残り、静かな山道の先に中世の城のたたずまいをしのばせる。与板を治めた直江一族ゆかりの地。",
        "image": "treasure.png"
      }
    },
    {
      "id": "rakuzanen",
      "districtId": "yoita",
      "name": "楽山苑",
      "lat": 37.5362,
      "lng": 138.8078,
      "radius": 60,
      "rarity": "uncommon",
      "coinsFirst": 160,
      "coinsRepeat": 10,
      "xp": 38,
      "category": "庭園",
      "treasure": {
        "title": "楽山苑",
        "era": "大坂屋三輪家の庭園",
        "blurb": "与板の豪商・大坂屋三輪家によって造られた庭園。池や木立を巧みに配した回遊式の庭で、北前船交易などで栄えた与板商人の富と美意識を今に伝える。四季折々の風情が楽しめる。",
        "image": "treasure.png"
      }
    },
    {
      "id": "tochio_castle",
      "districtId": "tochio",
      "name": "栃尾城跡",
      "lat": 37.4742,
      "lng": 138.9987,
      "radius": 60,
      "rarity": "rare",
      "coinsFirst": 200,
      "coinsRepeat": 10,
      "xp": 45,
      "category": "城跡・史跡",
      "treasure": {
        "title": "栃尾城跡",
        "era": "上杉謙信 旗揚げの地",
        "blurb": "南北朝期の創始と伝わる標高約227mの鶴城山の山城跡。上杉謙信（長尾景虎）が14歳の頃この城に入り、中越を鎮めて旗揚げをしたとされる「謙信公旗揚げの地」。山頂からは栃尾の城下町を一望できる。",
        "image": "treasure.png"
      }
    },
    {
      "id": "akiba_okunoin",
      "districtId": "tochio",
      "name": "秋葉神社 奥の院",
      "lat": 37.4721,
      "lng": 138.9958,
      "radius": 60,
      "rarity": "uncommon",
      "coinsFirst": 160,
      "coinsRepeat": 10,
      "xp": 38,
      "category": "寺社・文化財",
      "treasure": {
        "title": "秋葉神社 奥の院",
        "era": "石川雲蝶の彫刻",
        "blurb": "秋葉公園にある秋葉三尺坊大権現（秋葉神社）の奥の院。弘化3年（1846）の建立で、土台から破風まで越後の名工・石川雲蝶と熊谷源太郎の彫刻で埋め尽くされ、市の文化財に指定。園内には法衣姿で座す謙信公の銅像も建つ。",
        "image": "treasure.png"
      }
    },
    {
      "id": "tochio_aburage",
      "districtId": "tochio",
      "name": "栃尾のあぶらげ",
      "lat": 37.4756,
      "lng": 138.9912,
      "radius": 60,
      "rarity": "uncommon",
      "coinsFirst": 160,
      "coinsRepeat": 10,
      "xp": 38,
      "category": "名物・グルメ",
      "treasure": {
        "title": "栃尾のあぶらげ",
        "era": "名物ジャンボ油揚げ",
        "blurb": "長さ20cm超・厚さ3cmほどの、栃尾を代表するジャンボな油揚げ（あぶらげ）。江戸時代の馬市のにぎわいや秋葉神社参詣の土産が起源とも伝わる。揚げたてを店先で味わえる、栃尾のソウルフード。",
        "image": "treasure.png"
      }
    },
    {
      "id": "gangi_tochio",
      "districtId": "tochio",
      "name": "栃尾 雁木のまち並み",
      "lat": 37.4762,
      "lng": 138.9922,
      "radius": 60,
      "rarity": "common",
      "coinsFirst": 130,
      "coinsRepeat": 10,
      "xp": 30,
      "category": "町並み",
      "treasure": {
        "title": "栃尾 雁木のまち並み",
        "era": "雪国の歴史的町並み",
        "blurb": "雪深い栃尾の市街に残る「雁木（がんぎ）」の町並み。軒を長く延ばして雪の日も歩ける通路を確保した雪国の知恵で、市場町として栄えた栃尾の歴史を今に伝えるレトロな街並みが続く。",
        "image": "treasure.png"
      }
    },
    {
      "id": "momijien",
      "districtId": "koshiji",
      "name": "もみじ園（巴ヶ丘山荘）",
      "lat": 37.3536,
      "lng": 138.7735,
      "radius": 60,
      "rarity": "rare",
      "coinsFirst": 200,
      "coinsRepeat": 10,
      "xp": 45,
      "category": "庭園・紅葉",
      "treasure": {
        "title": "もみじ園（巴ヶ丘山荘）",
        "era": "明治期の紅葉庭園",
        "blurb": "明治29年（1896）頃、地主・髙橋家の別荘の庭として造られた庭園。約4,000㎡に樹齢150〜200年のもみじや山桜が茂り、秋の紅葉ライトアップは幻想的。園内の蔵カフェで庭を眺めながら一服もできる。国登録有形文化財。",
        "image": "treasure.png"
      }
    },
    {
      "id": "asahi_shuzo",
      "districtId": "koshiji",
      "name": "朝日酒造／酒楽の里あさひ山",
      "lat": 37.3522,
      "lng": 138.7748,
      "radius": 60,
      "rarity": "uncommon",
      "coinsFirst": 160,
      "coinsRepeat": 10,
      "xp": 38,
      "category": "酒蔵",
      "treasure": {
        "title": "朝日酒造／酒楽の里あさひ山",
        "era": "久保田・朝日山の酒蔵",
        "blurb": "「久保田」「朝日山」で知られる越路の造り酒屋。敷地内の「酒楽の里あさひ山」では多彩な酒を試せる試飲バーが人気で、食事処「あさひ山蛍庵」もある。もみじ園の整備にも協力する、越路の銘酒どころ。",
        "image": "treasure.png"
      }
    },
    {
      "id": "shoraikaku",
      "districtId": "koshiji",
      "name": "松籟閣",
      "lat": 37.3528,
      "lng": 138.7742,
      "radius": 60,
      "rarity": "uncommon",
      "coinsFirst": 160,
      "coinsRepeat": 10,
      "xp": 38,
      "category": "近代和風建築",
      "treasure": {
        "title": "松籟閣",
        "era": "朝日酒造創業家の邸宅",
        "blurb": "朝日酒造の創業家が昭和初期に建てた邸宅。松林（松籟）に囲まれた数寄屋風の近代和風建築で、各地の銘木や意匠を凝らした造りが見どころ。登録有形文化財として保存・公開されている。",
        "image": "treasure.png"
      }
    },
    {
      "id": "yomogihira_onsen",
      "districtId": "yomogihira",
      "name": "蓬平温泉",
      "lat": 37.3702,
      "lng": 138.8972,
      "radius": 60,
      "rarity": "rare",
      "coinsFirst": 200,
      "coinsRepeat": 10,
      "xp": 45,
      "category": "温泉",
      "treasure": {
        "title": "蓬平温泉",
        "era": "長岡の奥座敷",
        "blurb": "「長岡の奥座敷」と呼ばれる山あいの温泉地。とろみのある単純硫黄泉は肌ざわりがよく、湯上がりはつるつるに。商売繁盛の高龍神社のお膝元で、龍神伝説を起源に持つ数軒の宿がひなびた情緒を伝える。",
        "image": "treasure.png"
      }
    },
    {
      "id": "koryu_okumiya",
      "districtId": "yomogihira",
      "name": "高龍神社 奥宮",
      "lat": 37.3686,
      "lng": 138.8956,
      "radius": 60,
      "rarity": "uncommon",
      "coinsFirst": 160,
      "coinsRepeat": 10,
      "xp": 38,
      "category": "寺社",
      "treasure": {
        "title": "高龍神社 奥宮",
        "era": "金運のパワースポット奥宮",
        "blurb": "商売繁盛・金運のパワースポットとして全国から参拝者が絶えない高龍神社の奥宮。本殿からさらに山上へ、急な石段を上った先に鎮座する。龍にちなんだ手水舎やのぼり旗が続く、神秘的な参道の奥の聖地。",
        "image": "treasure.png"
      }
    }
  ]
}
